[{"_id":"619aaa3137cf84f9c172f4aa","reporterId":"618d9ee89733b091d1d2443b","name":"Rossi","phoneNumber":"1234567890","components":6,"address":{"coordinates":{"x":44.1417188,"y":12.2496938},"street":"Viale Guglielmo Oberdan","civicNumber":"12","city":"Cesena","_id":"619aaa3137cf84f9c172f4ab"},"status":"verified","creationDate":"2021-11-21T17:47:36.727Z","__v":0},{"_id":"619aaa6137cf84f9c172f4af","reporterId":"618d9ee89733b091d1d2443b","name":"Neri","phoneNumber":"1234567890","components":7,"address":{"coordinates":{"x":44.1453293,"y":12.2481996},"street":"Viale Europa","civicNumber":"22","city":"Cesena","_id":"619aaa6137cf84f9c172f4b0"},"status":"verified","creationDate":"2021-11-21T17:47:36.727Z","__v":0},{"_id":"619aaaa037cf84f9c172f4c5","reporterId":"618d9f8d9733b091d1d2444d","name":"Bianchi","phoneNumber":"1234567890","components":4,"address":{"coordinates":{"x":44.140054,"y":12.241062},"street":"Via Cairoli","civicNumber":"46","city":"Cesena","_id":"619aaaa037cf84f9c172f4c6"},"status":"verified","creationDate":"2021-11-21T17:47:36.727Z","__v":0},{"_id":"619aaade37cf84f9c172f4ca","reporterId":"618d9f8d9733b091d1d2444d","name":"Verdi","phoneNumber":"1234567890","components":30,"address":{"coordinates":{"x":44.1397197,"y":12.2479895},"street":"Via Madonna delle Rose","civicNumber":"20","city":"Cesena","_id":"619aaade37cf84f9c172f4cb"},"status":"pending","creationDate":"2021-11-21T17:47:36.727Z","__v":0},{"_id":"61a8e85924f8a571776e12df","reporterId":"618d9f5a9733b091d1d24444","name":"Famiglia","phoneNumber":"1234567890","components":10,"address":{"coordinates":{"x":44.1450869,"y":12.2171496},"street":"Via Nuova","civicNumber":"12","city":"Cesena","_id":"61a8e85924f8a571776e12e0"},"status":"verified","creationDate":"2021-12-02T14:41:24.705Z","__v":0}]